{"countries": [{"countryName": "UK", "lat": 55.378051, "lng": -3.435973}, {"countryName": "Cuba", "lat": 21.521757, "lng": -77.781167}, {"countryName": "France", "lat": 46.227638, "lng": 2.213749}, {"countryName": "China", "lat": 35.86166, "lng": 104.195397}, {"countryName": "Sweden", "lat": 60.12816100000001, "lng": 18.643501}, {"countryName": "US", "lat": 37.09024, "lng": -95.712891}, {"countryName": "Finland", "lat": 61.92410999999999, "lng": 25.748151}, {"countryName": "Iran", "lat": 32.427908, "lng": 53.688046}, {"countryName": "US", "lat": 37.09024, "lng": -95.712891}, {"countryName": "Mexico", "lat": 23.634501, "lng": -102.552784}, {"countryName": "China", "lat": 35.86166, "lng": 104.195397}, {"countryName": "UK", "lat": 55.378051, "lng": -3.435973}, {"countryName": "Denmark", "lat": 56.26392, "lng": 9.501785}, {"countryName": "Bosnia and Herzegovina", "lat": 43.915886, "lng": 17.679076}, {"countryName": "Turkey", "lat": 38.963745, "lng": 35.243322}, {"countryName": "Germany", "lat": 51.165691, "lng": 10.451526}, {"countryName": "Russia", "lat": 61.52401, "lng": 105.318756}, {"countryName": "Palestine", "lat": 31.952162, "lng": 35.233154}, {"countryName": "Germany", "lat": 51.165691, "lng": 10.451526}, {"countryName": "US", "lat": 37.09024, "lng": -95.712891}, {"countryName": "Germany", "lat": 51.165691, "lng": 10.451526}, {"countryName": "Ireland", "lat": 53.41291, "lng": -8.24389}, {"countryName": "Turkey", "lat": 38.963745, "lng": 35.243322}, {"countryName": "Russia", "lat": 61.52401, "lng": 105.318756}, {"countryName": "UK", "lat": 55.378051, "lng": -3.435973}, {"countryName": "Japan", "lat": 36.204824, "lng": 138.252924}, {"countryName": "US", "lat": 37.09024, "lng": -95.712891}, {"countryName": "UK", "lat": 55.378051, "lng": -3.435973}, {"countryName": "US", "lat": 37.09024, "lng": -95.712891}, {"countryName": "Uruguay", "lat": -32.522779, "lng": -55.765835}, {"countryName": "US", "lat": 37.09024, "lng": -95.712891}, {"countryName": "UK", "lat": 55.378051, "lng": -3.435973}, {"countryName": "Germany", "lat": 51.165691, "lng": 10.451526}, {"countryName": "Germany", "lat": 51.165691, "lng": 10.451526}, {"countryName": "Iran", "lat": 32.427908, "lng": 53.688046}, {"countryName": "Spain", "lat": 40.46366700000001, "lng": -3.74922}, {"countryName": "China", "lat": 35.86166, "lng": 104.195397}, {"countryName": "US", "lat": 37.09024, "lng": -95.712891}, {"countryName": "Poland", "lat": 51.919438, "lng": 19.145136}, {"countryName": "UK", "lat": 55.378051, "lng": -3.435973}, {"countryName": "Germany", "lat": 51.165691, "lng": 10.451526}, {"countryName": "US", "lat": 37.09024, "lng": -95.712891}, {"countryName": "Iran", "lat": 32.427908, "lng": 53.688046}, {"countryName": "France", "lat": 46.227638, "lng": 2.213749}, {"countryName": "US", "lat": 37.09024, "lng": -95.712891}]}